[{
    "trailID": 1,
    "reportID": 1,
    "ratingID": 1,
    "mapID": 1,
    "descriptionID": 1,
    "parkID": 1,
    "trailName": "White stork",
    "latitude": 40.1893575,
    "longitude": -8.8601025,
    "distance": 82,
    "difficulty": 45,
    "elevationChange": 11,
    "trailType": "Ciconia ciconia"
  }, {
    "trailID": 2,
    "reportID": 2,
    "ratingID": 2,
    "mapID": 2,
    "descriptionID": 2,
    "parkID": 2,
    "trailName": "Puffin, horned",
    "latitude": 24.4752847,
    "longitude": 101.3431058,
    "distance": 72,
    "difficulty": 23,
    "elevationChange": 20,
    "trailType": "Fratercula corniculata"
  }, {
    "trailID": 3,
    "reportID": 3,
    "ratingID": 3,
    "mapID": 3,
    "descriptionID": 3,
    "parkID": 3,
    "trailName": "Coot, red-knobbed",
    "latitude": 3.3783808,
    "longitude": 31.7822278,
    "distance": 63,
    "difficulty": 25,
    "elevationChange": 100,
    "trailType": "Fulica cristata"
  }, {
    "trailID": 4,
    "reportID": 4,
    "ratingID": 4,
    "mapID": 4,
    "descriptionID": 4,
    "parkID": 4,
    "trailName": "Phalarope, red-necked",
    "latitude": -10.3931514,
    "longitude": 39.1361568,
    "distance": 2,
    "difficulty": 11,
    "elevationChange": 20,
    "trailType": "Phalaropus lobatus"
  }, {
    "trailID": 5,
    "reportID": 5,
    "ratingID": 5,
    "mapID": 5,
    "descriptionID": 5,
    "parkID": 5,
    "trailName": "Owl, snowy",
    "latitude": 31.150681,
    "longitude": 121.124178,
    "distance": 29,
    "difficulty": 94,
    "elevationChange": 65,
    "trailType": "Nyctea scandiaca"
  }, {
    "trailID": 6,
    "reportID": 6,
    "ratingID": 6,
    "mapID": 6,
    "descriptionID": 6,
    "parkID": 6,
    "trailName": "Cottonmouth",
    "latitude": 45.5220648,
    "longitude": -122.6757228,
    "distance": 4,
    "difficulty": 57,
    "elevationChange": 58,
    "trailType": "Agkistrodon piscivorus"
  }, {
    "trailID": 7,
    "reportID": 7,
    "ratingID": 7,
    "mapID": 7,
    "descriptionID": 7,
    "parkID": 7,
    "trailName": "Alpaca",
    "latitude": 5.4328871,
    "longitude": -4.0388918,
    "distance": 23,
    "difficulty": 90,
    "elevationChange": 39,
    "trailType": "Lama pacos"
  }, {
    "trailID": 8,
    "reportID": 8,
    "ratingID": 8,
    "mapID": 8,
    "descriptionID": 8,
    "parkID": 8,
    "trailName": "Racer, blue",
    "latitude": 18.4748726,
    "longitude": -69.9002083,
    "distance": 88,
    "difficulty": 48,
    "elevationChange": 43,
    "trailType": "Coluber constrictor foxii"
  }, {
    "trailID": 9,
    "reportID": 9,
    "ratingID": 9,
    "mapID": 9,
    "descriptionID": 9,
    "parkID": 9,
    "trailName": "Robin, kalahari scrub",
    "latitude": 35.62231,
    "longitude": 10.75696,
    "distance": 88,
    "difficulty": 37,
    "elevationChange": 1,
    "trailType": "Certotrichas paena"
  }, {
    "trailID": 10,
    "reportID": 10,
    "ratingID": 10,
    "mapID": 10,
    "descriptionID": 10,
    "parkID": 10,
    "trailName": "Heron, green-backed",
    "latitude": 23.1635991,
    "longitude": -82.2854848,
    "distance": 46,
    "difficulty": 92,
    "elevationChange": 23,
    "trailType": "Butorides striatus"
  }, {
    "trailID": 11,
    "reportID": 11,
    "ratingID": 11,
    "mapID": 11,
    "descriptionID": 11,
    "parkID": 11,
    "trailName": "Marmot, yellow-bellied",
    "latitude": 31.4008095,
    "longitude": 30.4171887,
    "distance": 81,
    "difficulty": 57,
    "elevationChange": 85,
    "trailType": "Marmota flaviventris"
  }, {
    "trailID": 12,
    "reportID": 12,
    "ratingID": 12,
    "mapID": 12,
    "descriptionID": 12,
    "parkID": 12,
    "trailName": "Snake-necked turtle",
    "latitude": -8.2105982,
    "longitude": 112.4708685,
    "distance": 92,
    "difficulty": 80,
    "elevationChange": 83,
    "trailType": "Chelodina longicollis"
  }, {
    "trailID": 13,
    "reportID": 13,
    "ratingID": 13,
    "mapID": 13,
    "descriptionID": 13,
    "parkID": 13,
    "trailName": "Bulbul, african red-eyed",
    "latitude": 49.9958286,
    "longitude": 88.6754902,
    "distance": 7,
    "difficulty": 63,
    "elevationChange": 68,
    "trailType": "Pycnonotus nigricans"
  }, {
    "trailID": 14,
    "reportID": 14,
    "ratingID": 14,
    "mapID": 14,
    "descriptionID": 14,
    "parkID": 14,
    "trailName": "North American porcupine",
    "latitude": 43.7595362,
    "longitude": 44.677303,
    "distance": 9,
    "difficulty": 9,
    "elevationChange": 6,
    "trailType": "Erethizon dorsatum"
  }, {
    "trailID": 15,
    "reportID": 15,
    "ratingID": 15,
    "mapID": 15,
    "descriptionID": 15,
    "parkID": 15,
    "trailName": "Asian water dragon",
    "latitude": 6.7468164,
    "longitude": 38.4139922,
    "distance": 36,
    "difficulty": 25,
    "elevationChange": 17,
    "trailType": "Physignathus cocincinus"
  }, {
    "trailID": 16,
    "reportID": 16,
    "ratingID": 16,
    "mapID": 16,
    "descriptionID": 16,
    "parkID": 16,
    "trailName": "Greater flamingo",
    "latitude": 56.3229585,
    "longitude": 39.3205815,
    "distance": 79,
    "difficulty": 11,
    "elevationChange": 53,
    "trailType": "Phoenicopterus ruber"
  }, {
    "trailID": 17,
    "reportID": 17,
    "ratingID": 17,
    "mapID": 17,
    "descriptionID": 17,
    "parkID": 17,
    "trailName": "Coot, red-knobbed",
    "latitude": 30.45,
    "longitude": -91.15,
    "distance": 36,
    "difficulty": 84,
    "elevationChange": 33,
    "trailType": "Fulica cristata"
  }, {
    "trailID": 18,
    "reportID": 18,
    "ratingID": 18,
    "mapID": 18,
    "descriptionID": 18,
    "parkID": 18,
    "trailName": "Lilac-breasted roller",
    "latitude": 45.448409,
    "longitude": -73.858939,
    "distance": 55,
    "difficulty": 74,
    "elevationChange": 37,
    "trailType": "Coracias caudata"
  }, {
    "trailID": 19,
    "reportID": 19,
    "ratingID": 19,
    "mapID": 19,
    "descriptionID": 19,
    "parkID": 19,
    "trailName": "Starling, superb",
    "latitude": 44.596097,
    "longitude": 129.591591,
    "distance": 30,
    "difficulty": 49,
    "elevationChange": 80,
    "trailType": "Lamprotornis superbus"
  }, {
    "trailID": 20,
    "reportID": 20,
    "ratingID": 20,
    "mapID": 20,
    "descriptionID": 20,
    "parkID": 20,
    "trailName": "Lemming, arctic",
    "latitude": 32.42949,
    "longitude": 35.27112,
    "distance": 95,
    "difficulty": 37,
    "elevationChange": 7,
    "trailType": "Dicrostonyx groenlandicus"
  }, {
    "trailID": 21,
    "reportID": 21,
    "ratingID": 21,
    "mapID": 21,
    "descriptionID": 21,
    "parkID": 21,
    "trailName": "Two-toed sloth",
    "latitude": 32.0860889,
    "longitude": -7.0552218,
    "distance": 60,
    "difficulty": 44,
    "elevationChange": 73,
    "trailType": "Choloepus hoffmani"
  }, {
    "trailID": 22,
    "reportID": 22,
    "ratingID": 22,
    "mapID": 22,
    "descriptionID": 22,
    "parkID": 22,
    "trailName": "Tawny eagle",
    "latitude": -6.3477635,
    "longitude": 31.0736389,
    "distance": 65,
    "difficulty": 93,
    "elevationChange": 92,
    "trailType": "Anitibyx armatus"
  }, {
    "trailID": 23,
    "reportID": 23,
    "ratingID": 23,
    "mapID": 23,
    "descriptionID": 23,
    "parkID": 23,
    "trailName": "Porcupine, indian",
    "latitude": 39.5013158,
    "longitude": -0.3889622,
    "distance": 81,
    "difficulty": 50,
    "elevationChange": 70,
    "trailType": "Hystrix indica"
  }, {
    "trailID": 24,
    "reportID": 24,
    "ratingID": 24,
    "mapID": 24,
    "descriptionID": 24,
    "parkID": 24,
    "trailName": "Pine snake (unidentified)",
    "latitude": 26.312444,
    "longitude": 99.850365,
    "distance": 39,
    "difficulty": 38,
    "elevationChange": 95,
    "trailType": "Pituophis melanaleucus"
  }, {
    "trailID": 25,
    "reportID": 25,
    "ratingID": 25,
    "mapID": 25,
    "descriptionID": 25,
    "parkID": 25,
    "trailName": "African porcupine",
    "latitude": 9.2716618,
    "longitude": -2.9925577,
    "distance": 86,
    "difficulty": 67,
    "elevationChange": 31,
    "trailType": "Hystrix cristata"
  }, {
    "trailID": 26,
    "reportID": 26,
    "ratingID": 26,
    "mapID": 26,
    "descriptionID": 26,
    "parkID": 26,
    "trailName": "Darter, african",
    "latitude": 25.052896,
    "longitude": 101.53771,
    "distance": 18,
    "difficulty": 56,
    "elevationChange": 18,
    "trailType": "Anhinga rufa"
  }, {
    "trailID": 27,
    "reportID": 27,
    "ratingID": 27,
    "mapID": 27,
    "descriptionID": 27,
    "parkID": 27,
    "trailName": "Brocket, brown",
    "latitude": 36.7048972,
    "longitude": 52.6546785,
    "distance": 85,
    "difficulty": 20,
    "elevationChange": 78,
    "trailType": "Mazama gouazoubira"
  }, {
    "trailID": 28,
    "reportID": 28,
    "ratingID": 28,
    "mapID": 28,
    "descriptionID": 28,
    "parkID": 28,
    "trailName": "Swallow-tail gull",
    "latitude": -0.7739574,
    "longitude": 102.026135,
    "distance": 31,
    "difficulty": 1,
    "elevationChange": 94,
    "trailType": "Creagrus furcatus"
  }, {
    "trailID": 29,
    "reportID": 29,
    "ratingID": 29,
    "mapID": 29,
    "descriptionID": 29,
    "parkID": 29,
    "trailName": "Tinamou, elegant crested",
    "latitude": 4.0578303,
    "longitude": 38.3192073,
    "distance": 83,
    "difficulty": 49,
    "elevationChange": 64,
    "trailType": "Eudromia elegans"
  }, {
    "trailID": 30,
    "reportID": 30,
    "ratingID": 30,
    "mapID": 30,
    "descriptionID": 30,
    "parkID": 30,
    "trailName": "Hedgehog, south african",
    "latitude": 2.7722364,
    "longitude": 27.6082774,
    "distance": 51,
    "difficulty": 30,
    "elevationChange": 14,
    "trailType": "Erinaceus frontalis"
  }, {
    "trailID": 31,
    "reportID": 31,
    "ratingID": 31,
    "mapID": 31,
    "descriptionID": 31,
    "parkID": 31,
    "trailName": "Pied butcher bird",
    "latitude": 48.5851876,
    "longitude": 7.7342943,
    "distance": 77,
    "difficulty": 67,
    "elevationChange": 34,
    "trailType": "Cracticus nigroagularis"
  }, {
    "trailID": 32,
    "reportID": 32,
    "ratingID": 32,
    "mapID": 32,
    "descriptionID": 32,
    "parkID": 32,
    "trailName": "Pacific gull",
    "latitude": 51.1845319,
    "longitude": -115.572212,
    "distance": 77,
    "difficulty": 14,
    "elevationChange": 8,
    "trailType": "Gabianus pacificus"
  }, {
    "trailID": 33,
    "reportID": 33,
    "ratingID": 33,
    "mapID": 33,
    "descriptionID": 33,
    "parkID": 33,
    "trailName": "Nuthatch, red-breasted",
    "latitude": 32.032744,
    "longitude": 119.91921,
    "distance": 34,
    "difficulty": 4,
    "elevationChange": 7,
    "trailType": "Sitta canadensis"
  }, {
    "trailID": 34,
    "reportID": 34,
    "ratingID": 34,
    "mapID": 34,
    "descriptionID": 34,
    "parkID": 34,
    "trailName": "Blue-footed booby",
    "latitude": 6.7866898,
    "longitude": 6.9490955,
    "distance": 92,
    "difficulty": 22,
    "elevationChange": 52,
    "trailType": "Sula nebouxii"
  }, {
    "trailID": 35,
    "reportID": 35,
    "ratingID": 35,
    "mapID": 35,
    "descriptionID": 35,
    "parkID": 35,
    "trailName": "Cliffchat, mocking",
    "latitude": 40.2715286,
    "longitude": 44.633383,
    "distance": 91,
    "difficulty": 16,
    "elevationChange": 88,
    "trailType": "Thamnolaea cinnmomeiventris"
  }, {
    "trailID": 36,
    "reportID": 36,
    "ratingID": 36,
    "mapID": 36,
    "descriptionID": 36,
    "parkID": 36,
    "trailName": "Topi",
    "latitude": 10.0304186,
    "longitude": 123.5161366,
    "distance": 32,
    "difficulty": 67,
    "elevationChange": 49,
    "trailType": "Damaliscus lunatus"
  }, {
    "trailID": 37,
    "reportID": 37,
    "ratingID": 37,
    "mapID": 37,
    "descriptionID": 37,
    "parkID": 37,
    "trailName": "Mongoose, banded",
    "latitude": 5.3404492,
    "longitude": 37.4387894,
    "distance": 34,
    "difficulty": 60,
    "elevationChange": 22,
    "trailType": "Mungos mungo"
  }, {
    "trailID": 38,
    "reportID": 38,
    "ratingID": 38,
    "mapID": 38,
    "descriptionID": 38,
    "parkID": 38,
    "trailName": "Stork, saddle-billed",
    "latitude": 22.781631,
    "longitude": 108.273158,
    "distance": 9,
    "difficulty": 50,
    "elevationChange": 2,
    "trailType": "Ephipplorhynchus senegalensis"
  }, {
    "trailID": 39,
    "reportID": 39,
    "ratingID": 39,
    "mapID": 39,
    "descriptionID": 39,
    "parkID": 39,
    "trailName": "American black bear",
    "latitude": -7.2267854,
    "longitude": 110.5424021,
    "distance": 72,
    "difficulty": 11,
    "elevationChange": 63,
    "trailType": "Ursus americanus"
  }, {
    "trailID": 40,
    "reportID": 40,
    "ratingID": 40,
    "mapID": 40,
    "descriptionID": 40,
    "parkID": 40,
    "trailName": "Gila monster",
    "latitude": -8.4412858,
    "longitude": 113.7870822,
    "distance": 37,
    "difficulty": 7,
    "elevationChange": 33,
    "trailType": "Heloderma horridum"
  }, {
    "trailID": 41,
    "reportID": 41,
    "ratingID": 41,
    "mapID": 41,
    "descriptionID": 41,
    "parkID": 41,
    "trailName": "Stick insect",
    "latitude": 25.111382,
    "longitude": 117.549211,
    "distance": 70,
    "difficulty": 2,
    "elevationChange": 86,
    "trailType": "Leprocaulinus vipera"
  }, {
    "trailID": 42,
    "reportID": 42,
    "ratingID": 42,
    "mapID": 42,
    "descriptionID": 42,
    "parkID": 42,
    "trailName": "Cook's tree boa",
    "latitude": 43.974344,
    "longitude": 1.7811783,
    "distance": 55,
    "difficulty": 91,
    "elevationChange": 70,
    "trailType": "Corallus hortulanus cooki"
  }, {
    "trailID": 43,
    "reportID": 43,
    "ratingID": 43,
    "mapID": 43,
    "descriptionID": 43,
    "parkID": 43,
    "trailName": "Mongoose, javan gold-spotted",
    "latitude": 30.646759,
    "longitude": 111.276255,
    "distance": 7,
    "difficulty": 52,
    "elevationChange": 68,
    "trailType": "Herpestes javanicus"
  }, {
    "trailID": 44,
    "reportID": 44,
    "ratingID": 44,
    "mapID": 44,
    "descriptionID": 44,
    "parkID": 44,
    "trailName": "White-bellied sea eagle",
    "latitude": 49.7055805,
    "longitude": 18.2243639,
    "distance": 29,
    "difficulty": 47,
    "elevationChange": 24,
    "trailType": "Haliaetus leucogaster"
  }, {
    "trailID": 45,
    "reportID": 45,
    "ratingID": 45,
    "mapID": 45,
    "descriptionID": 45,
    "parkID": 45,
    "trailName": "Northern phalarope",
    "latitude": 6.2907432,
    "longitude": -10.7605239,
    "distance": 83,
    "difficulty": 42,
    "elevationChange": 78,
    "trailType": "Phalaropus lobatus"
  }, {
    "trailID": 46,
    "reportID": 46,
    "ratingID": 46,
    "mapID": 46,
    "descriptionID": 46,
    "parkID": 46,
    "trailName": "Red-breasted nuthatch",
    "latitude": 21.0694762,
    "longitude": 107.3139304,
    "distance": 60,
    "difficulty": 39,
    "elevationChange": 20,
    "trailType": "Sitta canadensis"
  }, {
    "trailID": 47,
    "reportID": 47,
    "ratingID": 47,
    "mapID": 47,
    "descriptionID": 47,
    "parkID": 47,
    "trailName": "Indian peacock",
    "latitude": 51.1434519,
    "longitude": 40.2997102,
    "distance": 71,
    "difficulty": 38,
    "elevationChange": 5,
    "trailType": "Pavo cristatus"
  }, {
    "trailID": 48,
    "reportID": 48,
    "ratingID": 48,
    "mapID": 48,
    "descriptionID": 48,
    "parkID": 48,
    "trailName": "Chilean flamingo",
    "latitude": 31.267134,
    "longitude": 120.7062535,
    "distance": 83,
    "difficulty": 76,
    "elevationChange": 25,
    "trailType": "Phoenicopterus chilensis"
  }, {
    "trailID": 49,
    "reportID": 49,
    "ratingID": 49,
    "mapID": 49,
    "descriptionID": 49,
    "parkID": 49,
    "trailName": "Swainson's francolin",
    "latitude": 30.629423,
    "longitude": 103.963147,
    "distance": 37,
    "difficulty": 26,
    "elevationChange": 5,
    "trailType": "Francolinus swainsonii"
  }, {
    "trailID": 50,
    "reportID": 50,
    "ratingID": 50,
    "mapID": 50,
    "descriptionID": 50,
    "parkID": 50,
    "trailName": "American woodcock",
    "latitude": 56.036667,
    "longitude": 39.9203466,
    "distance": 66,
    "difficulty": 90,
    "elevationChange": 71,
    "trailType": "Scolopax minor"
  }, {
    "trailID": 51,
    "reportID": 51,
    "ratingID": 51,
    "mapID": 51,
    "descriptionID": 51,
    "parkID": 51,
    "trailName": "Savanna baboon",
    "latitude": 59.7620958,
    "longitude": 18.7017911,
    "distance": 50,
    "difficulty": 66,
    "elevationChange": 55,
    "trailType": "Papio cynocephalus"
  }, {
    "trailID": 52,
    "reportID": 52,
    "ratingID": 52,
    "mapID": 52,
    "descriptionID": 52,
    "parkID": 52,
    "trailName": "Weaver, red-billed buffalo",
    "latitude": -15.1978317,
    "longitude": 12.1575544,
    "distance": 7,
    "difficulty": 2,
    "elevationChange": 56,
    "trailType": "Bubalornis niger"
  }, {
    "trailID": 53,
    "reportID": 53,
    "ratingID": 53,
    "mapID": 53,
    "descriptionID": 53,
    "parkID": 53,
    "trailName": "Thrasher, curve-billed",
    "latitude": -8.0650276,
    "longitude": 113.8011498,
    "distance": 89,
    "difficulty": 100,
    "elevationChange": 15,
    "trailType": "Toxostoma curvirostre"
  }, {
    "trailID": 54,
    "reportID": 54,
    "ratingID": 54,
    "mapID": 54,
    "descriptionID": 54,
    "parkID": 54,
    "trailName": "Rabbit, eastern cottontail",
    "latitude": 21.3106467,
    "longitude": 92.0974076,
    "distance": 92,
    "difficulty": 77,
    "elevationChange": 8,
    "trailType": "Sylvilagus floridanus"
  }, {
    "trailID": 55,
    "reportID": 55,
    "ratingID": 55,
    "mapID": 55,
    "descriptionID": 55,
    "parkID": 55,
    "trailName": "Squirrel, african bush",
    "latitude": 31.5825784,
    "longitude": 48.8875486,
    "distance": 77,
    "difficulty": 43,
    "elevationChange": 61,
    "trailType": "Paraxerus cepapi"
  }, {
    "trailID": 56,
    "reportID": 56,
    "ratingID": 56,
    "mapID": 56,
    "descriptionID": 56,
    "parkID": 56,
    "trailName": "Kangaroo, western grey",
    "latitude": 13.6757837,
    "longitude": -89.2894733,
    "distance": 61,
    "difficulty": 2,
    "elevationChange": 51,
    "trailType": "Macropus fuliginosus"
  }, {
    "trailID": 57,
    "reportID": 57,
    "ratingID": 57,
    "mapID": 57,
    "descriptionID": 57,
    "parkID": 57,
    "trailName": "Eastern boa constrictor",
    "latitude": 39.9226488,
    "longitude": -7.2372538,
    "distance": 71,
    "difficulty": 66,
    "elevationChange": 79,
    "trailType": "Acrantophis madagascariensis"
  }, {
    "trailID": 58,
    "reportID": 58,
    "ratingID": 58,
    "mapID": 58,
    "descriptionID": 58,
    "parkID": 58,
    "trailName": "Cape white-eye",
    "latitude": 10.2942407,
    "longitude": 123.5836143,
    "distance": 28,
    "difficulty": 66,
    "elevationChange": 89,
    "trailType": "Zosterops pallidus"
  }, {
    "trailID": 59,
    "reportID": 59,
    "ratingID": 59,
    "mapID": 59,
    "descriptionID": 59,
    "parkID": 59,
    "trailName": "Little cormorant",
    "latitude": -2.8553432,
    "longitude": 115.3074646,
    "distance": 6,
    "difficulty": 17,
    "elevationChange": 5,
    "trailType": "Phalacrocorax niger"
  }, {
    "trailID": 60,
    "reportID": 60,
    "ratingID": 60,
    "mapID": 60,
    "descriptionID": 60,
    "parkID": 60,
    "trailName": "Dragon, komodo",
    "latitude": 58.0250234,
    "longitude": 14.4700948,
    "distance": 98,
    "difficulty": 75,
    "elevationChange": 17,
    "trailType": "Varanus komodensis"
  }, {
    "trailID": 61,
    "reportID": 61,
    "ratingID": 61,
    "mapID": 61,
    "descriptionID": 61,
    "parkID": 61,
    "trailName": "Frilled dragon",
    "latitude": 6.6238674,
    "longitude": 100.9484493,
    "distance": 63,
    "difficulty": 8,
    "elevationChange": 40,
    "trailType": "Chlamydosaurus kingii"
  }, {
    "trailID": 62,
    "reportID": 62,
    "ratingID": 62,
    "mapID": 62,
    "descriptionID": 62,
    "parkID": 62,
    "trailName": "Dragon, asian water",
    "latitude": -3.1045962,
    "longitude": 119.8524988,
    "distance": 80,
    "difficulty": 98,
    "elevationChange": 93,
    "trailType": "Physignathus cocincinus"
  }, {
    "trailID": 63,
    "reportID": 63,
    "ratingID": 63,
    "mapID": 63,
    "descriptionID": 63,
    "parkID": 63,
    "trailName": "Mara",
    "latitude": -8.7636824,
    "longitude": 121.7238208,
    "distance": 31,
    "difficulty": 73,
    "elevationChange": 52,
    "trailType": "Dolichitus patagonum"
  }, {
    "trailID": 64,
    "reportID": 64,
    "ratingID": 64,
    "mapID": 64,
    "descriptionID": 64,
    "parkID": 64,
    "trailName": "Grey fox",
    "latitude": 44.6658941,
    "longitude": 20.9335169,
    "distance": 13,
    "difficulty": 86,
    "elevationChange": 76,
    "trailType": "Vulpes cinereoargenteus"
  }, {
    "trailID": 65,
    "reportID": 65,
    "ratingID": 65,
    "mapID": 65,
    "descriptionID": 65,
    "parkID": 65,
    "trailName": "Goldeneye, common",
    "latitude": 29.334318,
    "longitude": 117.001279,
    "distance": 32,
    "difficulty": 4,
    "elevationChange": 54,
    "trailType": "Bucephala clangula"
  }, {
    "trailID": 66,
    "reportID": 66,
    "ratingID": 66,
    "mapID": 66,
    "descriptionID": 66,
    "parkID": 66,
    "trailName": "Black-tailed tree creeper",
    "latitude": -29.6731137,
    "longitude": 29.9590375,
    "distance": 4,
    "difficulty": 88,
    "elevationChange": 17,
    "trailType": "Climacteris melanura"
  }, {
    "trailID": 67,
    "reportID": 67,
    "ratingID": 67,
    "mapID": 67,
    "descriptionID": 67,
    "parkID": 67,
    "trailName": "Sulfur-crested cockatoo",
    "latitude": -7.4212735,
    "longitude": 107.172085,
    "distance": 69,
    "difficulty": 30,
    "elevationChange": 53,
    "trailType": "Cacatua galerita"
  }, {
    "trailID": 68,
    "reportID": 68,
    "ratingID": 68,
    "mapID": 68,
    "descriptionID": 68,
    "parkID": 68,
    "trailName": "Raccoon, common",
    "latitude": 14.5177485,
    "longitude": 120.5973573,
    "distance": 18,
    "difficulty": 29,
    "elevationChange": 53,
    "trailType": "Procyon lotor"
  }, {
    "trailID": 69,
    "reportID": 69,
    "ratingID": 69,
    "mapID": 69,
    "descriptionID": 69,
    "parkID": 69,
    "trailName": "Fork-tailed drongo",
    "latitude": 35.8904199,
    "longitude": 8.5528746,
    "distance": 2,
    "difficulty": 97,
    "elevationChange": 59,
    "trailType": "Dicrurus adsimilis"
  }, {
    "trailID": 70,
    "reportID": 70,
    "ratingID": 70,
    "mapID": 70,
    "descriptionID": 70,
    "parkID": 70,
    "trailName": "Langur, common",
    "latitude": 42.972096,
    "longitude": 126.746309,
    "distance": 66,
    "difficulty": 66,
    "elevationChange": 8,
    "trailType": "Semnopithecus entellus"
  }, {
    "trailID": 71,
    "reportID": 71,
    "ratingID": 71,
    "mapID": 71,
    "descriptionID": 71,
    "parkID": 71,
    "trailName": "Boubou, southern",
    "latitude": 0.202957,
    "longitude": 35.0978385,
    "distance": 99,
    "difficulty": 40,
    "elevationChange": 21,
    "trailType": "Laniarius ferrugineus"
  }, {
    "trailID": 72,
    "reportID": 72,
    "ratingID": 72,
    "mapID": 72,
    "descriptionID": 72,
    "parkID": 72,
    "trailName": "Andean goose",
    "latitude": 32.200197,
    "longitude": 118.41697,
    "distance": 11,
    "difficulty": 77,
    "elevationChange": 38,
    "trailType": "Chloephaga melanoptera"
  }, {
    "trailID": 73,
    "reportID": 73,
    "ratingID": 73,
    "mapID": 73,
    "descriptionID": 73,
    "parkID": 73,
    "trailName": "Two-toed sloth",
    "latitude": 22.7615314,
    "longitude": 105.348246,
    "distance": 97,
    "difficulty": 41,
    "elevationChange": 19,
    "trailType": "Choloepus hoffmani"
  }, {
    "trailID": 74,
    "reportID": 74,
    "ratingID": 74,
    "mapID": 74,
    "descriptionID": 74,
    "parkID": 74,
    "trailName": "Buffalo, african",
    "latitude": 35.0010118,
    "longitude": -85.3162066,
    "distance": 82,
    "difficulty": 41,
    "elevationChange": 55,
    "trailType": "Snycerus caffer"
  }, {
    "trailID": 75,
    "reportID": 75,
    "ratingID": 75,
    "mapID": 75,
    "descriptionID": 75,
    "parkID": 75,
    "trailName": "Eagle, pallas's fish",
    "latitude": 28.155801,
    "longitude": 105.444765,
    "distance": 78,
    "difficulty": 86,
    "elevationChange": 58,
    "trailType": "Haliaeetus leucoryphus"
  }, {
    "trailID": 76,
    "reportID": 76,
    "ratingID": 76,
    "mapID": 76,
    "descriptionID": 76,
    "parkID": 76,
    "trailName": "Savannah deer",
    "latitude": -7.3391892,
    "longitude": 106.8768415,
    "distance": 77,
    "difficulty": 55,
    "elevationChange": 12,
    "trailType": "Mazama gouazoubira"
  }, {
    "trailID": 77,
    "reportID": 77,
    "ratingID": 77,
    "mapID": 77,
    "descriptionID": 77,
    "parkID": 77,
    "trailName": "Common eland",
    "latitude": 33.083093,
    "longitude": 120.185095,
    "distance": 23,
    "difficulty": 49,
    "elevationChange": 20,
    "trailType": "Taurotagus oryx"
  }, {
    "trailID": 78,
    "reportID": 78,
    "ratingID": 78,
    "mapID": 78,
    "descriptionID": 78,
    "parkID": 78,
    "trailName": "Bat, asian false vampire",
    "latitude": 38.5385973,
    "longitude": -121.6954666,
    "distance": 14,
    "difficulty": 82,
    "elevationChange": 68,
    "trailType": "Megaderma spasma"
  }, {
    "trailID": 79,
    "reportID": 79,
    "ratingID": 79,
    "mapID": 79,
    "descriptionID": 79,
    "parkID": 79,
    "trailName": "Otter, cape clawless",
    "latitude": 34.26645,
    "longitude": 108.960747,
    "distance": 4,
    "difficulty": 3,
    "elevationChange": 75,
    "trailType": "Aonyx capensis"
  }, {
    "trailID": 80,
    "reportID": 80,
    "ratingID": 80,
    "mapID": 80,
    "descriptionID": 80,
    "parkID": 80,
    "trailName": "Arctic lemming",
    "latitude": 50.2642858,
    "longitude": 13.5453919,
    "distance": 12,
    "difficulty": 81,
    "elevationChange": 92,
    "trailType": "Dicrostonyx groenlandicus"
  }, {
    "trailID": 81,
    "reportID": 81,
    "ratingID": 81,
    "mapID": 81,
    "descriptionID": 81,
    "parkID": 81,
    "trailName": "Great white pelican",
    "latitude": -9.7413641,
    "longitude": -36.4580775,
    "distance": 92,
    "difficulty": 13,
    "elevationChange": 21,
    "trailType": "Pelecans onocratalus"
  }, {
    "trailID": 82,
    "reportID": 82,
    "ratingID": 82,
    "mapID": 82,
    "descriptionID": 82,
    "parkID": 82,
    "trailName": "Tern, white-winged",
    "latitude": -8.0580651,
    "longitude": -79.0552494,
    "distance": 80,
    "difficulty": 41,
    "elevationChange": 57,
    "trailType": "Chlidonias leucopterus"
  }, {
    "trailID": 83,
    "reportID": 83,
    "ratingID": 83,
    "mapID": 83,
    "descriptionID": 83,
    "parkID": 83,
    "trailName": "Pheasant, common",
    "latitude": 10.4825247,
    "longitude": 105.4771084,
    "distance": 11,
    "difficulty": 30,
    "elevationChange": 58,
    "trailType": "Phasianus colchicus"
  }, {
    "trailID": 84,
    "reportID": 84,
    "ratingID": 84,
    "mapID": 84,
    "descriptionID": 84,
    "parkID": 84,
    "trailName": "Dusky gull",
    "latitude": 49.4660029,
    "longitude": 1.0736574,
    "distance": 77,
    "difficulty": 91,
    "elevationChange": 30,
    "trailType": "Larus fuliginosus"
  }, {
    "trailID": 85,
    "reportID": 85,
    "ratingID": 85,
    "mapID": 85,
    "descriptionID": 85,
    "parkID": 85,
    "trailName": "Coqui partridge",
    "latitude": 3.0070658,
    "longitude": 131.1237781,
    "distance": 66,
    "difficulty": 40,
    "elevationChange": 45,
    "trailType": "Francolinus coqui"
  }, {
    "trailID": 86,
    "reportID": 86,
    "ratingID": 86,
    "mapID": 86,
    "descriptionID": 86,
    "parkID": 86,
    "trailName": "King vulture",
    "latitude": 38.042805,
    "longitude": 114.514893,
    "distance": 47,
    "difficulty": 82,
    "elevationChange": 51,
    "trailType": "Sarcorhamphus papa"
  }, {
    "trailID": 87,
    "reportID": 87,
    "ratingID": 87,
    "mapID": 87,
    "descriptionID": 87,
    "parkID": 87,
    "trailName": "Frog (unidentified)",
    "latitude": 12.0036455,
    "longitude": 107.6876481,
    "distance": 41,
    "difficulty": 20,
    "elevationChange": 50,
    "trailType": "Rana sp."
  }, {
    "trailID": 88,
    "reportID": 88,
    "ratingID": 88,
    "mapID": 88,
    "descriptionID": 88,
    "parkID": 88,
    "trailName": "Ringtail cat",
    "latitude": 41.9310884,
    "longitude": 19.2147632,
    "distance": 62,
    "difficulty": 13,
    "elevationChange": 4,
    "trailType": "Bassariscus astutus"
  }, {
    "trailID": 89,
    "reportID": 89,
    "ratingID": 89,
    "mapID": 89,
    "descriptionID": 89,
    "parkID": 89,
    "trailName": "Cormorant, king",
    "latitude": 41.375722,
    "longitude": 121.781518,
    "distance": 58,
    "difficulty": 19,
    "elevationChange": 70,
    "trailType": "Phalacrocorax albiventer"
  }, {
    "trailID": 90,
    "reportID": 90,
    "ratingID": 90,
    "mapID": 90,
    "descriptionID": 90,
    "parkID": 90,
    "trailName": "Cheetah",
    "latitude": 15.60444,
    "longitude": -13.3211909,
    "distance": 3,
    "difficulty": 15,
    "elevationChange": 62,
    "trailType": "Acinynox jubatus"
  }, {
    "trailID": 91,
    "reportID": 91,
    "ratingID": 91,
    "mapID": 91,
    "descriptionID": 91,
    "parkID": 91,
    "trailName": "King cormorant",
    "latitude": 40.7200264,
    "longitude": -7.2571497,
    "distance": 10,
    "difficulty": 1,
    "elevationChange": 99,
    "trailType": "Phalacrocorax albiventer"
  }, {
    "trailID": 92,
    "reportID": 92,
    "ratingID": 92,
    "mapID": 92,
    "descriptionID": 92,
    "parkID": 92,
    "trailName": "Rock dove",
    "latitude": 28.441557,
    "longitude": 120.41341,
    "distance": 52,
    "difficulty": 36,
    "elevationChange": 48,
    "trailType": "Columba livia"
  }, {
    "trailID": 93,
    "reportID": 93,
    "ratingID": 93,
    "mapID": 93,
    "descriptionID": 93,
    "parkID": 93,
    "trailName": "Black-necked stork",
    "latitude": 42.5064293,
    "longitude": 20.3599254,
    "distance": 8,
    "difficulty": 1,
    "elevationChange": 22,
    "trailType": "Ephippiorhynchus mycteria"
  }, {
    "trailID": 94,
    "reportID": 94,
    "ratingID": 94,
    "mapID": 94,
    "descriptionID": 94,
    "parkID": 94,
    "trailName": "Pine siskin",
    "latitude": -7.3743397,
    "longitude": 110.2648159,
    "distance": 39,
    "difficulty": 72,
    "elevationChange": 5,
    "trailType": "Carduelis pinus"
  }, {
    "trailID": 95,
    "reportID": 95,
    "ratingID": 95,
    "mapID": 95,
    "descriptionID": 95,
    "parkID": 95,
    "trailName": "White-tailed deer",
    "latitude": -27.7145846,
    "longitude": -48.5606259,
    "distance": 58,
    "difficulty": 44,
    "elevationChange": 42,
    "trailType": "Odocoilenaus virginianus"
  }, {
    "trailID": 96,
    "reportID": 96,
    "ratingID": 96,
    "mapID": 96,
    "descriptionID": 96,
    "parkID": 96,
    "trailName": "Adouri (unidentified)",
    "latitude": 31.189689,
    "longitude": 16.5701927,
    "distance": 52,
    "difficulty": 94,
    "elevationChange": 47,
    "trailType": "unavailable"
  }, {
    "trailID": 97,
    "reportID": 97,
    "ratingID": 97,
    "mapID": 97,
    "descriptionID": 97,
    "parkID": 97,
    "trailName": "Desert spiny lizard",
    "latitude": -4.203165,
    "longitude": -69.935907,
    "distance": 12,
    "difficulty": 66,
    "elevationChange": 59,
    "trailType": "Sceloporus magister"
  }, {
    "trailID": 98,
    "reportID": 98,
    "ratingID": 98,
    "mapID": 98,
    "descriptionID": 98,
    "parkID": 98,
    "trailName": "African polecat",
    "latitude": 57.779138,
    "longitude": 12.0602512,
    "distance": 57,
    "difficulty": 25,
    "elevationChange": 99,
    "trailType": "Ictonyx striatus"
  }, {
    "trailID": 99,
    "reportID": 99,
    "ratingID": 99,
    "mapID": 99,
    "descriptionID": 99,
    "parkID": 99,
    "trailName": "Gull, southern black-backed",
    "latitude": 38.9771158,
    "longitude": 117.7098707,
    "distance": 91,
    "difficulty": 4,
    "elevationChange": 35,
    "trailType": "Larus dominicanus"
  }, {
    "trailID": 100,
    "reportID": 100,
    "ratingID": 100,
    "mapID": 100,
    "descriptionID": 100,
    "parkID": 100,
    "trailName": "Puffin, horned",
    "latitude": 39.6611469,
    "longitude": 20.1789757,
    "distance": 88,
    "difficulty": 91,
    "elevationChange": 43,
    "trailType": "Fratercula corniculata"
}]


